[{"id":2147714,"name":"Sydney","lat":-33.86785,"lng":151.20732,"elevation":0.0,"dstRules":"AEST-10AEDT,M10.1.0,M4.1.0/3"},{"id":2174003,"name":"Brisbane","lat":-27.46794,"lng":153.02809,"elevation":0.0,"dstRules":"AEST-10"},{"id":2078025,"name":"Adelaide","lat":-34.92866,"lng":138.59863,"elevation":0.0,"dstRules":"ACST-9:30ACDT,M10.1.0,M4.1.0/3"},{"id":2158177,"name":"Melbourne","lat":-37.814,"lng":144.96332,"elevation":0.0,"dstRules":"AEST-10AEDT,M10.1.0,M4.1.0/3"},{"id":2165087,"name":"Gold Coast","lat":-28.00029,"lng":153.43088,"elevation":0.0,"dstRules":"AEST-10"},{"id":2063523,"name":"Perth","lat":-31.95224,"lng":115.8614,"elevation":0.0,"dstRules":"AWST-8"}]