[{"id":1205733,"name":"Chattogram","lat":22.3384,"lng":91.83168,"elevation":0.0,"dstRules":"<+06>-6"},{"id":1185128,"name":"Rajshahi","lat":24.374,"lng":88.60114,"elevation":0.0,"dstRules":"<+06>-6"},{"id":1185188,"name":"Rangpur","lat":25.74664,"lng":89.25166,"elevation":0.0,"dstRules":"<+06>-6"},{"id":1185186,"name":"Comilla","lat":23.46186,"lng":91.18503,"elevation":0.0,"dstRules":"<+06>-6"},{"id":1185241,"name":"Dhaka","lat":23.7104,"lng":90.40744,"elevation":0.0,"dstRules":"<+06>-6"},{"id":1336135,"name":"Khulna","lat":22.80979,"lng":89.56439,"elevation":0.0,"dstRules":"<+06>-6"}]