[{"id":2593460,"name":"Masina","lat":-4.38361,"lng":15.39139,"elevation":0.0,"dstRules":"WAT-1"},{"id":214481,"name":"Kananga","lat":-5.89624,"lng":22.41659,"elevation":0.0,"dstRules":"CAT-2"},{"id":922773,"name":"Kolwezi","lat":-10.71484,"lng":25.46674,"elevation":0.0,"dstRules":"CAT-2"},{"id":922741,"name":"Likasi","lat":-10.98303,"lng":26.7384,"elevation":0.0,"dstRules":"CAT-2"},{"id":2314302,"name":"Kinshasa","lat":-4.32758,"lng":15.31357,"elevation":0.0,"dstRules":"WAT-1"},{"id":209228,"name":"Mbuji-Mayi","lat":-6.13603,"lng":23.58979,"elevation":0.0,"dstRules":"CAT-2"},{"id":212730,"name":"Kisangani","lat":0.51528,"lng":25.19099,"elevation":0.0,"dstRules":"CAT-2"},{"id":922704,"name":"Lubumbashi","lat":-11.66089,"lng":27.47938,"elevation":0.0,"dstRules":"CAT-2"}]