[{"id":1783934,"name":"Shangqiu","lat":34.45,"lng":115.65,"elevation":0.0,"dstRules":"CST-8"},{"id":1812101,"name":"Dongying","lat":37.46271,"lng":118.49165,"elevation":0.0,"dstRules":"CST-8"},{"id":1815059,"name":"Chenzhou","lat":25.8,"lng":113.03333,"elevation":0.0,"dstRules":"CST-8"},{"id":1816269,"name":"Baise","lat":23.89013,"lng":106.62684,"elevation":0.0,"dstRules":"CST-8"},{"id":1799962,"name":"Nanjing","lat":32.06167,"lng":118.77778,"elevation":0.0,"dstRules":"CST-8"},{"id":1786764,"name":"Yichang","lat":30.71444,"lng":111.28472,"elevation":0.0,"dstRules":"CST-8"},{"id":1787858,"name":"Shangrao","lat":28.45179,"lng":117.94287,"elevation":0.0,"dstRules":"CST-8"},{"id":1814087,"name":"Dalian","lat":38.91222,"lng":121.60222,"elevation":0.0,"dstRules":"CST-8"},{"id":1790353,"name":"Xianyang","lat":34.33778,"lng":108.70261,"elevation":0.0,"dstRules":"CST-8"},{"id":1793743,"name":"Suzhou","lat":33.63611,"lng":116.97889,"elevation":0.0,"dstRules":"CST-8"},{"id":1792892,"name":"Tianshui","lat":34.57952,"lng":105.74238,"elevation":0.0,"dstRules":"CST-8"},{"id":1795928,"name":"Shanwei","lat":22.78199,"lng":115.3475,"elevation":0.0,"dstRules":"CST-8"},{"id":1786760,"name":"Yixing","lat":31.36059,"lng":119.82016,"elevation":0.0,"dstRules":"CST-8"},{"id":1791681,"name":"Weifang","lat":36.71,"lng":119.10194,"elevation":0.0,"dstRules":"CST-8"},{"id":1799722,"name":"Nantong","lat":32.03028,"lng":120.87472,"elevation":0.0,"dstRules":"CST-8"},{"id":1804153,"name":"Leshan","lat":29.56227,"lng":103.76386,"elevation":0.0,"dstRules":"CST-8"},{"id":1810845,"name":"Fuyang","lat":32.9,"lng":115.81667,"elevation":0.0,"dstRules":"CST-8"},{"id":1816705,"name":"Beihai","lat":21.48349,"lng":109.11549,"elevation":0.0,"dstRules":"CST-8"},{"id":1793505,"name":"Taizhou","lat":32.49069,"lng":119.90812,"elevation":0.0,"dstRules":"CST-8"},{"id":1799846,"name":"Nanping","lat":26.645,"lng":118.17361,"elevation":0.0,"dstRules":"CST-8"},{"id":1808198,"name":"Heze","lat":35.23929,"lng":115.47358,"elevation":0.0,"dstRules":"CST-8"},{"id":2034414,"name":"Tonghua","lat":41.71972,"lng":125.92639,"elevation":0.0,"dstRules":"CST-8"},{"id":1799397,"name":"Ningbo","lat":29.87819,"lng":121.54945,"elevation":0.0,"dstRules":"CST-8"},{"id":1809061,"name":"Jiaojiang","lat":28.69844,"lng":121.47331,"elevation":0.0,"dstRules":"CST-8"},{"id":1814757,"name":"Chuzhou","lat":32.32194,"lng":118.29778,"elevation":0.0,"dstRules":"CST-8"},{"id":1804609,"name":"Laibin","lat":23.74743,"lng":109.22222,"elevation":0.0,"dstRules":"CST-8"},{"id":1815286,"name":"Chengdu","lat":30.66667,"lng":104.06667,"elevation":0.0,"dstRules":"CST-8"},{"id":1814870,"name":"Yiwu","lat":29.31506,"lng":120.07676,"elevation":0.0,"dstRules":"CST-8"},{"id":1786657,"name":"Yinchuan","lat":38.46806,"lng":106.27306,"elevation":0.0,"dstRules":"CST-8"},{"id":1787746,"name":"Yancheng","lat":33.3575,"lng":120.1573,"elevation":0.0,"dstRules":"CST-8"},{"id":1816373,"name":"Bijie","lat":27.30193,"lng":105.28627,"elevation":0.0,"dstRules":"CST-8"},{"id":2035513,"name":"Panshan","lat":41.18806,"lng":122.04944,"elevation":0.0,"dstRules":"CST-8"},{"id":2034786,"name":"Shuangyashan","lat":46.67686,"lng":131.13273,"elevation":0.0,"dstRules":"CST-8"},{"id":1790587,"name":"Xiangyang","lat":32.0422,"lng":112.14479,"elevation":0.0,"dstRules":"CST-8"},{"id":1791673,"name":"Weihai","lat":37.50914,"lng":122.11356,"elevation":0.0,"dstRules":"CST-8"},{"id":1809858,"name":"Guangzhou","lat":23.11667,"lng":113.25,"elevation":0.0,"dstRules":"CST-8"},{"id":1786770,"name":"Yibin","lat":28.7593,"lng":104.63994,"elevation":0.0,"dstRules":"CST-8"},{"id":1806466,"name":"Guangyuan","lat":32.44201,"lng":105.823,"elevation":0.0,"dstRules":"CST-8"},{"id":1797658,"name":"Jinjiang","lat":24.81978,"lng":118.57415,"elevation":0.0,"dstRules":"CST-8"},{"id":1809152,"name":"Guyuan","lat":36.00667,"lng":106.28083,"elevation":0.0,"dstRules":"CST-8"},{"id":1816920,"name":"Shaoyang","lat":27.23818,"lng":111.46214,"elevation":0.0,"dstRules":"CST-8"},{"id":1815395,"name":"Chaozhou","lat":23.65396,"lng":116.62262,"elevation":0.0,"dstRules":"CST-8"},{"id":1790254,"name":"Xiaogan","lat":30.92689,"lng":113.92221,"elevation":0.0,"dstRules":"CST-8"},{"id":1802875,"name":"Guankou","lat":28.15861,"lng":113.62709,"elevation":0.0,"dstRules":"CST-8"},{"id":1279945,"name":"Jiuquan","lat":39.74318,"lng":98.51736,"elevation":0.0,"dstRules":"CST-8"},{"id":1808857,"name":"Hanzhong","lat":33.07507,"lng":107.02214,"elevation":0.0,"dstRules":"CST-8"},{"id":1790492,"name":"Xiangtan","lat":27.85,"lng":112.9,"elevation":0.0,"dstRules":"CST-8"},{"id":1785453,"name":"Zaozhuang","lat":34.86472,"lng":117.55417,"elevation":0.0,"dstRules":"CST-8"},{"id":1788046,"name":"Xuchang","lat":34.03189,"lng":113.86299,"elevation":0.0,"dstRules":"CST-8"},{"id":1810821,"name":"Fuzhou","lat":26.06139,"lng":119.30611,"elevation":0.0,"dstRules":"CST-8"},{"id":1798654,"name":"Pingxiang","lat":27.61672,"lng":113.85353,"elevation":0.0,"dstRules":"CST-8"},{"id":1810820,"name":"Fuzhou","lat":27.95999,"lng":116.33333,"elevation":0.0,"dstRules":"CST-8"},{"id":1529376,"name":"Korla","lat":41.76055,"lng":86.15231,"elevation":0.0,"dstRules":"<+06>-6"},{"id":1796236,"name":"Shanghai","lat":31.22222,"lng":121.45806,"elevation":0.0,"dstRules":"CST-8"},{"id":1795940,"name":"Shantou","lat":23.36814,"lng":116.71479,"elevation":0.0,"dstRules":"CST-8"},{"id":1799869,"name":"Nanning","lat":22.81667,"lng":108.31667,"elevation":0.0,"dstRules":"CST-8"},{"id":1799629,"name":"Nanyang","lat":32.99472,"lng":112.53278,"elevation":0.0,"dstRules":"CST-8"},{"id":1797551,"name":"Qinzhou","lat":21.98247,"lng":108.65061,"elevation":0.0,"dstRules":"CST-8"},{"id":1798760,"name":"Pingliang","lat":35.53917,"lng":106.68611,"elevation":0.0,"dstRules":"CST-8"},{"id":1811103,"name":"Foshan","lat":23.02677,"lng":113.13148,"elevation":0.0,"dstRules":"CST-8"},{"id":1787765,"name":"Yan'an","lat":36.59889,"lng":109.49167,"elevation":0.0,"dstRules":"CST-8"},{"id":1816234,"name":"Bozhou","lat":33.87722,"lng":115.77028,"elevation":0.0,"dstRules":"CST-8"},{"id":1793511,"name":"Taiyuan","lat":37.86944,"lng":112.56028,"elevation":0.0,"dstRules":"CST-8"},{"id":1788852,"name":"Xining","lat":36.62554,"lng":101.75739,"elevation":0.0,"dstRules":"CST-8"},{"id":1801792,"name":"Luoyang","lat":34.68361,"lng":112.45361,"elevation":0.0,"dstRules":"CST-8"},{"id":1784130,"name":"Zhoukou","lat":33.63333,"lng":114.63333,"elevation":0.0,"dstRules":"CST-8"},{"id":1806445,"name":"Ji'an","lat":27.11716,"lng":114.97927,"elevation":0.0,"dstRules":"CST-8"},{"id":1790923,"name":"Wuxi","lat":31.56887,"lng":120.28857,"elevation":0.0,"dstRules":"CST-8"},{"id":1793879,"name":"Suizhou","lat":31.71111,"lng":113.36306,"elevation":0.0,"dstRules":"CST-8"},{"id":1797318,"name":"Qujing","lat":25.48333,"lng":103.78333,"elevation":0.0,"dstRules":"CST-8"},{"id":1788508,"name":"Xinyu","lat":27.80429,"lng":114.93335,"elevation":0.0,"dstRules":"CST-8"},{"id":1791247,"name":"Wuhan","lat":30.58333,"lng":114.26667,"elevation":0.0,"dstRules":"CST-8"},{"id":1793424,"name":"Tanggu","lat":39.02111,"lng":117.64694,"elevation":0.0,"dstRules":"CST-8"},{"id":1804879,"name":"Kaifeng","lat":34.7986,"lng":114.30742,"elevation":0.0,"dstRules":"CST-8"},{"id":1791121,"name":"Changde","lat":29.03205,"lng":111.69844,"elevation":0.0,"dstRules":"CST-8"},{"id":1803300,"name":"Liuzhou","lat":24.32405,"lng":109.40698,"elevation":0.0,"dstRules":"CST-8"},{"id":1790396,"name":"Xianning","lat":29.84347,"lng":114.32201,"elevation":0.0,"dstRules":"CST-8"},{"id":1808316,"name":"Yiyang","lat":28.58917,"lng":112.32833,"elevation":0.0,"dstRules":"CST-8"},{"id":2035265,"name":"Qiqihar","lat":47.33922,"lng":123.96154,"elevation":0.0,"dstRules":"CST-8"},{"id":1529195,"name":"Shihezi","lat":44.3023,"lng":86.03694,"elevation":0.0,"dstRules":"<+06>-6"},{"id":1787093,"name":"Yantai","lat":37.47649,"lng":121.44081,"elevation":0.0,"dstRules":"CST-8"},{"id":1783988,"name":"Zhucheng","lat":35.99472,"lng":119.3975,"elevation":0.0,"dstRules":"CST-8"},{"id":1816858,"name":"Basuo","lat":19.0939,"lng":108.65456,"elevation":0.0,"dstRules":"CST-8"},{"id":1816971,"name":"Baoding","lat":38.85111,"lng":115.49028,"elevation":0.0,"dstRules":"CST-8"},{"id":1783621,"name":"Zunyi","lat":27.68667,"lng":106.90722,"elevation":0.0,"dstRules":"CST-8"},{"id":1803318,"name":"Linyi","lat":35.06306,"lng":118.34278,"elevation":0.0,"dstRules":"CST-8"},{"id":1783745,"name":"Zigong","lat":29.34162,"lng":104.77689,"elevation":0.0,"dstRules":"CST-8"},{"id":1786217,"name":"Yongzhou","lat":26.42389,"lng":111.61306,"elevation":0.0,"dstRules":"CST-8"},{"id":1795270,"name":"Shijiazhuang","lat":38.04139,"lng":114.47861,"elevation":0.0,"dstRules":"CST-8"},{"id":1801934,"name":"Luohe","lat":33.56394,"lng":114.04272,"elevation":0.0,"dstRules":"CST-8"},{"id":1799194,"name":"Guang'an","lat":30.47413,"lng":106.63696,"elevation":0.0,"dstRules":"CST-8"},{"id":1791236,"name":"Wuhu","lat":31.33728,"lng":118.37351,"elevation":0.0,"dstRules":"CST-8"},{"id":1805611,"name":"Jingmen","lat":31.03361,"lng":112.20472,"elevation":0.0,"dstRules":"CST-8"},{"id":1793771,"name":"Suqian","lat":33.94917,"lng":118.29583,"elevation":0.0,"dstRules":"CST-8"},{"id":1805179,"name":"Jiujiang","lat":29.70475,"lng":116.00206,"elevation":0.0,"dstRules":"CST-8"},{"id":1809412,"name":"Guli","lat":28.88162,"lng":120.03308,"elevation":0.0,"dstRules":"CST-8"},{"id":1798425,"name":"Puyang","lat":29.45679,"lng":119.88872,"elevation":0.0,"dstRules":"CST-8"},{"id":1807234,"name":"Huangshi","lat":30.24706,"lng":115.04814,"elevation":0.0,"dstRules":"CST-8"},{"id":1809532,"name":"Guigang","lat":23.11603,"lng":109.59472,"elevation":0.0,"dstRules":"CST-8"},{"id":1800163,"name":"Nanchang","lat":28.68396,"lng":115.85306,"elevation":0.0,"dstRules":"CST-8"},{"id":1810638,"name":"Ganzhou","lat":25.84664,"lng":114.9326,"elevation":0.0,"dstRules":"CST-8"},{"id":2035715,"name":"Mudanjiang","lat":44.54804,"lng":129.62594,"elevation":0.0,"dstRules":"CST-8"},{"id":1800818,"name":"Meishan","lat":30.04392,"lng":103.83696,"elevation":0.0,"dstRules":"CST-8"},{"id":1797121,"name":"Jieyang","lat":23.5418,"lng":116.36581,"elevation":0.0,"dstRules":"CST-8"},{"id":1783873,"name":"Zhumadian","lat":32.97944,"lng":114.02944,"elevation":0.0,"dstRules":"CST-8"},{"id":1784841,"name":"Zhaotong","lat":27.31667,"lng":103.71667,"elevation":0.0,"dstRules":"CST-8"},{"id":1785018,"name":"Zhangzhou","lat":24.51333,"lng":117.65556,"elevation":0.0,"dstRules":"CST-8"},{"id":1791388,"name":"Wenzhou","lat":27.99942,"lng":120.66682,"elevation":0.0,"dstRules":"CST-8"},{"id":1797929,"name":"Qingdao","lat":36.06488,"lng":120.38042,"elevation":0.0,"dstRules":"CST-8"},{"id":1807689,"name":"Huaihua","lat":27.56337,"lng":110.00404,"elevation":0.0,"dstRules":"CST-8"},{"id":1788081,"name":"Xuanzhou","lat":30.9525,"lng":118.75528,"elevation":0.0,"dstRules":"CST-8"},{"id":2034714,"name":"Siping","lat":43.16143,"lng":124.37785,"elevation":0.0,"dstRules":"CST-8"},{"id":1792359,"name":"Huangshan","lat":29.71139,"lng":118.3125,"elevation":0.0,"dstRules":"CST-8"},{"id":1808770,"name":"Hebi","lat":35.89917,"lng":114.1925,"elevation":0.0,"dstRules":"CST-8"},{"id":1807681,"name":"Huainan","lat":32.62639,"lng":116.99694,"elevation":0.0,"dstRules":"CST-8"},{"id":1797353,"name":"Quanzhou","lat":24.91389,"lng":118.58583,"elevation":0.0,"dstRules":"CST-8"},{"id":1797595,"name":"Qinhuangdao","lat":39.93167,"lng":119.58833,"elevation":0.0,"dstRules":"CST-8"},{"id":1813325,"name":"Dazhou","lat":31.2106,"lng":107.46308,"elevation":0.0,"dstRules":"CST-8"},{"id":1783763,"name":"Zhuzhou","lat":27.83333,"lng":113.15,"elevation":0.0,"dstRules":"CST-8"},{"id":1788534,"name":"Xinyang","lat":32.12278,"lng":114.06556,"elevation":0.0,"dstRules":"CST-8"},{"id":1784853,"name":"Zhaoqing","lat":23.04893,"lng":112.46091,"elevation":0.0,"dstRules":"CST-8"},{"id":1802204,"name":"Luancheng","lat":37.87917,"lng":114.65167,"elevation":0.0,"dstRules":"CST-8"},{"id":1790840,"name":"Wuzhou","lat":23.48054,"lng":111.28848,"elevation":0.0,"dstRules":"CST-8"},{"id":1789065,"name":"Ankang","lat":32.68,"lng":109.01722,"elevation":0.0,"dstRules":"CST-8"},{"id":1802206,"name":"Lu'an","lat":31.73561,"lng":116.51688,"elevation":0.0,"dstRules":"CST-8"},{"id":1786112,"name":"Heyuan","lat":23.73333,"lng":114.68333,"elevation":0.0,"dstRules":"CST-8"},{"id":1805953,"name":"Jiaxing","lat":30.7522,"lng":120.75,"elevation":0.0,"dstRules":"CST-8"},{"id":2033196,"name":"Zhangjiakou","lat":40.78341,"lng":114.87139,"elevation":0.0,"dstRules":"CST-8"},{"id":1281673,"name":"Baoshan","lat":25.11626,"lng":99.16366,"elevation":0.0,"dstRules":"CST-8"},{"id":1800146,"name":"Nanchong","lat":30.79508,"lng":106.08473,"elevation":0.0,"dstRules":"CST-8"},{"id":1806488,"name":"Qionghai","lat":19.2425,"lng":110.46417,"elevation":0.0,"dstRules":"CST-8"},{"id":1798449,"name":"Putian","lat":25.43944,"lng":119.01028,"elevation":0.0,"dstRules":"CST-8"},{"id":1795855,"name":"Shaoxing","lat":30.00237,"lng":120.57864,"elevation":0.0,"dstRules":"CST-8"},{"id":1809078,"name":"Haikou","lat":20.03421,"lng":110.34651,"elevation":0.0,"dstRules":"CST-8"},{"id":1797264,"name":"Quzhou","lat":28.95944,"lng":118.86861,"elevation":0.0,"dstRules":"CST-8"},{"id":1815456,"name":"Changzhou","lat":31.77359,"lng":119.95401,"elevation":0.0,"dstRules":"CST-8"},{"id":1815577,"name":"Changsha","lat":28.19874,"lng":112.97087,"elevation":0.0,"dstRules":"CST-8"},{"id":1785036,"name":"Zhangye","lat":38.93417,"lng":100.45167,"elevation":0.0,"dstRules":"CST-8"},{"id":1817993,"name":"Anqing","lat":30.51365,"lng":117.04723,"elevation":0.0,"dstRules":"CST-8"},{"id":1805528,"name":"Jinhua","lat":29.10678,"lng":119.64421,"elevation":0.0,"dstRules":"CST-8"},{"id":1793346,"name":"Tangshan","lat":39.63333,"lng":118.18333,"elevation":0.0,"dstRules":"CST-8"},{"id":1909733,"name":"Banan","lat":29.37861,"lng":106.54,"elevation":0.0,"dstRules":"CST-8"},{"id":1790630,"name":"Xi'an","lat":34.25833,"lng":108.92861,"elevation":0.0,"dstRules":"CST-8"},{"id":1787331,"name":"Zhangjiagang","lat":31.865,"lng":120.53889,"elevation":0.0,"dstRules":"CST-8"},{"id":1794794,"name":"Shouguang","lat":36.88,"lng":118.7375,"elevation":0.0,"dstRules":"CST-8"},{"id":1807700,"name":"Huaibei","lat":33.97444,"lng":116.79167,"elevation":0.0,"dstRules":"CST-8"},{"id":2034937,"name":"Shenyang","lat":41.79222,"lng":123.43278,"elevation":0.0,"dstRules":"CST-8"},{"id":1804430,"name":"Lanzhou","lat":36.05701,"lng":103.83987,"elevation":0.0,"dstRules":"CST-8"},{"id":1806299,"name":"Jiangmen","lat":22.58333,"lng":113.08333,"elevation":0.0,"dstRules":"CST-8"},{"id":1793900,"name":"Suining","lat":30.50802,"lng":105.57332,"elevation":0.0,"dstRules":"CST-8"},{"id":1797945,"name":"Qingyuan","lat":23.7,"lng":113.03333,"elevation":0.0,"dstRules":"CST-8"},{"id":1812749,"name":"Dingxi","lat":35.57088,"lng":104.62303,"elevation":0.0,"dstRules":"CST-8"},{"id":1809461,"name":"Guiyang","lat":26.58333,"lng":106.71667,"elevation":0.0,"dstRules":"CST-8"},{"id":1808370,"name":"Hengyang","lat":26.88946,"lng":112.61888,"elevation":0.0,"dstRules":"CST-8"},{"id":1787227,"name":"Yangzhou","lat":32.39722,"lng":119.43583,"elevation":0.0,"dstRules":"CST-8"},{"id":1789647,"name":"Xichang","lat":27.89642,"lng":102.26341,"elevation":0.0,"dstRules":"CST-8"},{"id":1785725,"name":"Yunfu","lat":22.92787,"lng":112.03809,"elevation":0.0,"dstRules":"CST-8"},{"id":1802940,"name":"Puning","lat":23.31072,"lng":116.16869,"elevation":0.0,"dstRules":"CST-8"},{"id":1808926,"name":"Hangzhou","lat":30.29365,"lng":120.16142,"elevation":0.0,"dstRules":"CST-8"},{"id":1785286,"name":"Zibo","lat":36.79056,"lng":118.06333,"elevation":0.0,"dstRules":"CST-8"},{"id":1784990,"name":"Zhanjiang","lat":21.23391,"lng":110.38749,"elevation":0.0,"dstRules":"CST-8"},{"id":1795874,"name":"Shaoguan","lat":24.8,"lng":113.58333,"elevation":0.0,"dstRules":"CST-8"},{"id":1785738,"name":"Yuncheng","lat":35.02306,"lng":110.99278,"elevation":0.0,"dstRules":"CST-8"},{"id":1812961,"name":"Deyang","lat":31.13019,"lng":104.38198,"elevation":0.0,"dstRules":"CST-8"},{"id":1784642,"name":"Zhenjiang","lat":32.21086,"lng":119.45508,"elevation":0.0,"dstRules":"CST-8"},{"id":1787351,"name":"Yangquan","lat":37.8575,"lng":113.56333,"elevation":0.0,"dstRules":"CST-8"},{"id":1803567,"name":"Linfen","lat":36.08889,"lng":111.51889,"elevation":0.0,"dstRules":"CST-8"},{"id":1802238,"name":"Loudi","lat":27.73444,"lng":111.99444,"elevation":0.0,"dstRules":"CST-8"},{"id":1805987,"name":"Jiaozuo","lat":35.23972,"lng":113.23306,"elevation":0.0,"dstRules":"CST-8"},{"id":1785294,"name":"Anyang","lat":36.096,"lng":114.38278,"elevation":0.0,"dstRules":"CST-8"},{"id":1805741,"name":"Jincheng","lat":35.50222,"lng":112.83278,"elevation":0.0,"dstRules":"CST-8"},{"id":1804651,"name":"Kunming","lat":25.03889,"lng":102.71833,"elevation":0.0,"dstRules":"CST-8"},{"id":1791748,"name":"Wanxian","lat":30.81601,"lng":108.37407,"elevation":0.0,"dstRules":"CST-8"},{"id":1814906,"name":"Chongqing","lat":29.56026,"lng":106.55771,"elevation":0.0,"dstRules":"CST-8"},{"id":1886762,"name":"Zhoushan","lat":29.98869,"lng":122.20488,"elevation":0.0,"dstRules":"CST-8"},{"id":1817968,"name":"Anshun","lat":26.25,"lng":105.93333,"elevation":0.0,"dstRules":"CST-8"},{"id":1886760,"name":"Suzhou","lat":31.30408,"lng":120.59538,"elevation":0.0,"dstRules":"CST-8"},{"id":1817720,"name":"Shangyu","lat":30.01556,"lng":120.87111,"elevation":0.0,"dstRules":"CST-8"},{"id":1796068,"name":"Shangluo","lat":33.86667,"lng":109.93056,"elevation":0.0,"dstRules":"CST-8"},{"id":1783683,"name":"Ziyang","lat":30.12108,"lng":104.64811,"elevation":0.0,"dstRules":"CST-8"},{"id":1785623,"name":"Kunshan","lat":31.37762,"lng":120.95431,"elevation":0.0,"dstRules":"CST-8"},{"id":1784658,"name":"Zhengzhou","lat":34.75778,"lng":113.64861,"elevation":0.0,"dstRules":"CST-8"},{"id":1805518,"name":"Jining","lat":35.405,"lng":116.58139,"elevation":0.0,"dstRules":"CST-8"},{"id":1800627,"name":"Mianyang","lat":31.46784,"lng":104.68168,"elevation":0.0,"dstRules":"CST-8"},{"id":1816080,"name":"Cangzhou","lat":38.31667,"lng":116.86667,"elevation":0.0,"dstRules":"CST-8"},{"id":1788572,"name":"Xinxiang","lat":35.19033,"lng":113.80151,"elevation":0.0,"dstRules":"CST-8"},{"id":1788450,"name":"Xinzhou","lat":38.40917,"lng":112.73333,"elevation":0.0,"dstRules":"CST-8"},{"id":1806602,"name":"Cixi","lat":30.1764,"lng":121.2457,"elevation":0.0,"dstRules":"CST-8"},{"id":1805753,"name":"Jinan","lat":36.66833,"lng":116.99722,"elevation":0.0,"dstRules":"CST-8"},{"id":1529660,"name":"Aksu","lat":41.18418,"lng":80.27921,"elevation":0.0,"dstRules":"<+06>-6"},{"id":1792947,"name":"Tianjin","lat":39.14222,"lng":117.17667,"elevation":0.0,"dstRules":"CST-8"},{"id":1804540,"name":"Langfang","lat":39.50972,"lng":116.69472,"elevation":0.0,"dstRules":"CST-8"},{"id":1812955,"name":"Dezhou","lat":37.44661,"lng":116.36706,"elevation":0.0,"dstRules":"CST-8"},{"id":1790645,"name":"Xiamen","lat":24.47979,"lng":118.08187,"elevation":0.0,"dstRules":"CST-8"},{"id":1797063,"name":"Rui'an","lat":27.77605,"lng":120.65859,"elevation":0.0,"dstRules":"CST-8"},{"id":1787816,"name":"Ya'an","lat":29.98521,"lng":102.999,"elevation":0.0,"dstRules":"CST-8"},{"id":1812545,"name":"Dongguan","lat":23.01797,"lng":113.74866,"elevation":0.0,"dstRules":"CST-8"},{"id":1815251,"name":"Jiangyin","lat":31.91102,"lng":120.26302,"elevation":0.0,"dstRules":"CST-8"},{"id":1806535,"name":"Huzhou","lat":30.8703,"lng":120.0933,"elevation":0.0,"dstRules":"CST-8"},{"id":1808956,"name":"Changzhi","lat":36.18389,"lng":113.10528,"elevation":0.0,"dstRules":"CST-8"},{"id":1801640,"name":"Luzhou","lat":28.8903,"lng":105.42575,"elevation":0.0,"dstRules":"CST-8"},{"id":1806776,"name":"Huizhou","lat":23.11147,"lng":114.41523,"elevation":0.0,"dstRules":"CST-8"},{"id":1795565,"name":"Shenzhen","lat":22.54554,"lng":114.0683,"elevation":0.0,"dstRules":"CST-8"},{"id":1805680,"name":"Jingdezhen","lat":29.2947,"lng":117.20789,"elevation":0.0,"dstRules":"CST-8"},{"id":1793703,"name":"Taicang","lat":31.44778,"lng":121.09389,"elevation":0.0,"dstRules":"CST-8"},{"id":1790437,"name":"Zhuhai","lat":22.27694,"lng":113.56778,"elevation":0.0,"dstRules":"CST-8"},{"id":1806096,"name":"Jiaozhou","lat":36.28389,"lng":120.00333,"elevation":0.0,"dstRules":"CST-8"},{"id":1804591,"name":"Laiwu","lat":36.19278,"lng":117.65694,"elevation":0.0,"dstRules":"CST-8"},{"id":1806097,"name":"Ningde","lat":26.66167,"lng":119.52278,"elevation":0.0,"dstRules":"CST-8"},{"id":1927639,"name":"Yueyang","lat":29.37455,"lng":113.09481,"elevation":0.0,"dstRules":"CST-8"},{"id":1816336,"name":"Binzhou","lat":37.36667,"lng":118.01667,"elevation":0.0,"dstRules":"CST-8"},{"id":2033370,"name":"Yingkou","lat":40.66472,"lng":122.23176,"elevation":0.0,"dstRules":"CST-8"},{"id":1281019,"name":"Hotan","lat":37.1075,"lng":79.93548,"elevation":0.0,"dstRules":"<+06>-6"},{"id":1798827,"name":"Pingdingshan","lat":33.73847,"lng":113.30119,"elevation":0.0,"dstRules":"CST-8"},{"id":1803834,"name":"Liaocheng","lat":36.45064,"lng":116.00247,"elevation":0.0,"dstRules":"CST-8"},{"id":1808722,"name":"Hefei","lat":31.86389,"lng":117.28083,"elevation":0.0,"dstRules":"CST-8"},{"id":1808963,"name":"Handan","lat":36.60999,"lng":114.48764,"elevation":0.0,"dstRules":"CST-8"},{"id":1798821,"name":"Pingdu","lat":36.78444,"lng":119.94639,"elevation":0.0,"dstRules":"CST-8"},{"id":1794903,"name":"Shiyan","lat":32.6475,"lng":110.77806,"elevation":0.0,"dstRules":"CST-8"},{"id":1809498,"name":"Guilin","lat":25.28022,"lng":110.29639,"elevation":0.0,"dstRules":"CST-8"},{"id":1791636,"name":"Weinan","lat":34.50355,"lng":109.50891,"elevation":0.0,"dstRules":"CST-8"},{"id":1788927,"name":"Xingtai","lat":37.06306,"lng":114.49417,"elevation":0.0,"dstRules":"CST-8"},{"id":1816440,"name":"Bengbu","lat":32.94083,"lng":117.36083,"elevation":0.0,"dstRules":"CST-8"},{"id":1800779,"name":"Meizhou","lat":24.28859,"lng":116.11768,"elevation":0.0,"dstRules":"CST-8"},{"id":1813171,"name":"Zhangjiajie","lat":29.12944,"lng":110.47833,"elevation":0.0,"dstRules":"CST-8"},{"id":1280849,"name":"Kashgar","lat":39.47066,"lng":75.98951,"elevation":0.0,"dstRules":"<+06>-6"},{"id":1785412,"name":"Zhabei","lat":31.25861,"lng":121.45972,"elevation":0.0,"dstRules":"CST-8"},{"id":1786746,"name":"Yichun","lat":27.83333,"lng":114.4,"elevation":0.0,"dstRules":"CST-8"},{"id":1801620,"name":"Ma'anshan","lat":31.68579,"lng":118.51008,"elevation":0.0,"dstRules":"CST-8"},{"id":1791544,"name":"Wenchang","lat":19.55158,"lng":110.80279,"elevation":0.0,"dstRules":"CST-8"},{"id":1802276,"name":"Longyan","lat":25.07485,"lng":117.01775,"elevation":0.0,"dstRules":"CST-8"},{"id":1803245,"name":"Lishui","lat":28.46042,"lng":119.91029,"elevation":0.0,"dstRules":"CST-8"},{"id":1796556,"name":"Sanya","lat":18.24306,"lng":109.505,"elevation":0.0,"dstRules":"CST-8"},{"id":1805540,"name":"Jingzhou","lat":30.35028,"lng":112.19028,"elevation":0.0,"dstRules":"CST-8"},{"id":1801180,"name":"Maoming","lat":21.66625,"lng":110.91364,"elevation":0.0,"dstRules":"CST-8"},{"id":1793724,"name":"Tai'an","lat":36.18528,"lng":117.12,"elevation":0.0,"dstRules":"CST-8"},{"id":1808392,"name":"Hengshui","lat":37.73222,"lng":115.70111,"elevation":0.0,"dstRules":"CST-8"},{"id":1815463,"name":"Changzhi","lat":35.20889,"lng":111.73861,"elevation":0.0,"dstRules":"CST-8"},{"id":1799491,"name":"Neijiang","lat":29.58354,"lng":105.06216,"elevation":0.0,"dstRules":"CST-8"},{"id":1803936,"name":"Wuwei","lat":37.92672,"lng":102.63202,"elevation":0.0,"dstRules":"CST-8"},{"id":1816670,"name":"Beijing","lat":39.9075,"lng":116.39723,"elevation":0.0,"dstRules":"CST-8"},{"id":1792621,"name":"Tongling","lat":30.95,"lng":117.78333,"elevation":0.0,"dstRules":"CST-8"},{"id":1806408,"name":"Yangjiang","lat":21.85563,"lng":111.96272,"elevation":0.0,"dstRules":"CST-8"},{"id":1785781,"name":"Yulin","lat":22.6305,"lng":110.14686,"elevation":0.0,"dstRules":"CST-8"},{"id":1529102,"name":"UEruemqi","lat":43.80096,"lng":87.60046,"elevation":0.0,"dstRules":"<+06>-6"},{"id":1796663,"name":"Sanming","lat":26.24861,"lng":117.61861,"elevation":0.0,"dstRules":"CST-8"},{"id":1797873,"name":"Huai'an","lat":33.58861,"lng":119.01917,"elevation":0.0,"dstRules":"CST-8"},{"id":1814934,"name":"Chizhou","lat":30.66134,"lng":117.47783,"elevation":0.0,"dstRules":"CST-8"},{"id":1791779,"name":"Wanning","lat":18.79931,"lng":110.3841,"elevation":0.0,"dstRules":"CST-8"},{"id":1796669,"name":"Sanmenxia","lat":34.77472,"lng":111.18139,"elevation":0.0,"dstRules":"CST-8"}]