[{"id":3668605,"name":"Santa Marta","lat":11.24079,"lng":-74.19904,"elevation":0.0,"dstRules":"<-05>5"},{"id":3666304,"name":"Valledupar","lat":10.46314,"lng":-73.25322,"elevation":0.0,"dstRules":"<-05>5"},{"id":3688465,"name":"Bucaramanga","lat":7.12539,"lng":-73.1198,"elevation":0.0,"dstRules":"<-05>5"},{"id":3689147,"name":"Barranquilla","lat":10.96854,"lng":-74.78132,"elevation":0.0,"dstRules":"<-05>5"},{"id":3685533,"name":"Cucuta","lat":7.89391,"lng":-72.50782,"elevation":0.0,"dstRules":"<-05>5"},{"id":3688689,"name":"Bogota","lat":4.60971,"lng":-74.08175,"elevation":0.0,"dstRules":"<-05>5"},{"id":3687238,"name":"Cartagena","lat":10.39972,"lng":-75.51444,"elevation":0.0,"dstRules":"<-05>5"},{"id":3687925,"name":"Cali","lat":3.43722,"lng":-76.5225,"elevation":0.0,"dstRules":"<-05>5"},{"id":3674453,"name":"Monteria","lat":8.74798,"lng":-75.88143,"elevation":0.0,"dstRules":"<-05>5"},{"id":3675443,"name":"Manizales","lat":5.06889,"lng":-75.51738,"elevation":0.0,"dstRules":"<-05>5"},{"id":3680656,"name":"Ibague","lat":4.43889,"lng":-75.23222,"elevation":0.0,"dstRules":"<-05>5"},{"id":3672486,"name":"Pereira","lat":4.81333,"lng":-75.69611,"elevation":0.0,"dstRules":"<-05>5"},{"id":3674962,"name":"Medellin","lat":6.25184,"lng":-75.56359,"elevation":1405.0,"dstRules":"<-05>5"},{"id":3688452,"name":"Buenaventura","lat":3.58333,"lng":-77.0,"elevation":7.0,"dstRules":"<-05>5"}]