[{"id":3117735,"name":"Madrid","lat":40.4165,"lng":-3.70256,"elevation":0.0,"dstRules":"CET-1CEST,M3.5.0,M10.5.0/3"},{"id":2512989,"name":"Palma","lat":39.56939,"lng":2.65024,"elevation":0.0,"dstRules":"CET-1CEST,M3.5.0,M10.5.0/3"},{"id":2510911,"name":"Sevilla","lat":37.38283,"lng":-5.97317,"elevation":0.0,"dstRules":"CET-1CEST,M3.5.0,M10.5.0/3"},{"id":2513416,"name":"Murcia","lat":37.98704,"lng":-1.13004,"elevation":0.0,"dstRules":"CET-1CEST,M3.5.0,M10.5.0/3"},{"id":2509954,"name":"Valencia","lat":39.46975,"lng":-0.37739,"elevation":15.0,"dstRules":"CET-1CEST,M3.5.0,M10.5.0/3"},{"id":3104324,"name":"Zaragoza","lat":41.65606,"lng":-0.87734,"elevation":0.0,"dstRules":"CET-1CEST,M3.5.0,M10.5.0/3"},{"id":3128760,"name":"Barcelona","lat":41.38879,"lng":2.15899,"elevation":15.0,"dstRules":"CET-1CEST,M3.5.0,M10.5.0/3"},{"id":2514256,"name":"Malaga","lat":36.72016,"lng":-4.42034,"elevation":0.0,"dstRules":"CET-1CEST,M3.5.0,M10.5.0/3"}]