[{"id":336014,"name":"Gondar","lat":12.6,"lng":37.46667,"elevation":0.0,"dstRules":"EAT-3"},{"id":330186,"name":"Nazret","lat":8.55,"lng":39.26667,"elevation":0.0,"dstRules":"EAT-3"},{"id":331180,"name":"Mek'ele","lat":13.49667,"lng":39.47528,"elevation":0.0,"dstRules":"EAT-3"},{"id":344979,"name":"Addis Ababa","lat":9.02497,"lng":38.74689,"elevation":0.0,"dstRules":"EAT-3"},{"id":343137,"name":"Hawassa","lat":7.06205,"lng":38.47635,"elevation":0.0,"dstRules":"EAT-3"},{"id":333795,"name":"Jijiga","lat":9.35,"lng":42.8,"elevation":0.0,"dstRules":"EAT-3"}]