[{"id":1841811,"name":"Gwangju","lat":35.15472,"lng":126.91556,"elevation":0.0,"dstRules":"KST-9"},{"id":1843847,"name":"Hwaseong-si","lat":37.20682,"lng":126.8169,"elevation":0.0,"dstRules":"KST-9"},{"id":1846918,"name":"Ansan-si","lat":37.32361,"lng":126.82194,"elevation":0.0,"dstRules":"KST-9"},{"id":1835553,"name":"Suwon","lat":37.29111,"lng":127.00889,"elevation":0.0,"dstRules":"KST-9"},{"id":1838524,"name":"Busan","lat":35.10168,"lng":129.03004,"elevation":0.0,"dstRules":"KST-9"},{"id":1835235,"name":"Daejeon","lat":36.34913,"lng":127.38493,"elevation":0.0,"dstRules":"KST-9"},{"id":1841246,"name":"Masan","lat":35.12725,"lng":126.83149,"elevation":0.0,"dstRules":"KST-9"},{"id":1842225,"name":"Gumi","lat":36.1136,"lng":128.336,"elevation":0.0,"dstRules":"KST-9"},{"id":1845604,"name":"Cheongju-si","lat":36.63722,"lng":127.48972,"elevation":0.0,"dstRules":"KST-9"},{"id":1845759,"name":"Cheonan","lat":36.8065,"lng":127.1522,"elevation":0.0,"dstRules":"KST-9"},{"id":1842943,"name":"Kimhae","lat":35.23417,"lng":128.88111,"elevation":0.0,"dstRules":"KST-9"},{"id":1833747,"name":"Ulsan","lat":35.53722,"lng":129.31667,"elevation":0.0,"dstRules":"KST-9"},{"id":1897000,"name":"Seongnam-si","lat":37.43861,"lng":127.13778,"elevation":0.0,"dstRules":"KST-9"},{"id":1833788,"name":"Uijeongbu-si","lat":37.7415,"lng":127.0474,"elevation":0.0,"dstRules":"KST-9"},{"id":1839071,"name":"Pohang","lat":36.02917,"lng":129.36481,"elevation":0.0,"dstRules":"KST-9"},{"id":1843564,"name":"Incheon","lat":37.45646,"lng":126.70515,"elevation":0.0,"dstRules":"KST-9"},{"id":1845457,"name":"Jeonju","lat":35.82194,"lng":127.14889,"elevation":0.0,"dstRules":"KST-9"},{"id":1846326,"name":"Changwon","lat":35.22806,"lng":128.68111,"elevation":0.0,"dstRules":"KST-9"},{"id":1846898,"name":"Anyang-si","lat":37.3925,"lng":126.92694,"elevation":0.0,"dstRules":"KST-9"},{"id":1835329,"name":"Daegu","lat":35.87028,"lng":128.59111,"elevation":0.0,"dstRules":"KST-9"},{"id":1838716,"name":"Bucheon-si","lat":37.49889,"lng":126.78306,"elevation":0.0,"dstRules":"KST-9"},{"id":1842485,"name":"Goyang-si","lat":37.65639,"lng":126.835,"elevation":0.0,"dstRules":"KST-9"},{"id":1835848,"name":"Seoul","lat":37.566,"lng":126.9784,"elevation":0.0,"dstRules":"KST-9"},{"id":1846266,"name":"Jeju City","lat":33.50972,"lng":126.52194,"elevation":0.0,"dstRules":"KST-9"}]