[{"id":3693528,"name":"Piura","lat":-5.19449,"lng":-80.63282,"elevation":0.0,"dstRules":"<-05>5"},{"id":3947322,"name":"Arequipa","lat":-16.39889,"lng":-71.535,"elevation":0.0,"dstRules":"<-05>5"},{"id":3936456,"name":"Lima","lat":-12.04318,"lng":-77.02824,"elevation":0.0,"dstRules":"<-05>5"},{"id":3939459,"name":"Huancayo","lat":-12.06513,"lng":-75.20486,"elevation":0.0,"dstRules":"<-05>5"},{"id":3691175,"name":"Trujillo","lat":-8.11599,"lng":-79.02998,"elevation":0.0,"dstRules":"<-05>5"},{"id":3941584,"name":"Cusco","lat":-13.52264,"lng":-71.96734,"elevation":0.0,"dstRules":"<-05>5"},{"id":3946083,"name":"Callao","lat":-12.05659,"lng":-77.11814,"elevation":0.0,"dstRules":"<-05>5"},{"id":3698350,"name":"Chiclayo","lat":-6.77137,"lng":-79.84088,"elevation":0.0,"dstRules":"<-05>5"}]