[{"id":1183105,"name":"Battagram","lat":34.67719,"lng":73.02329,"elevation":0.0,"dstRules":"PKT-5"},{"id":1179400,"name":"Faisalabad","lat":31.41554,"lng":73.08969,"elevation":0.0,"dstRules":"PKT-5"},{"id":1164909,"name":"Sialkot","lat":32.49268,"lng":74.53134,"elevation":0.0,"dstRules":"PKT-5"},{"id":1167460,"name":"Rahim Yar Khan","lat":28.41987,"lng":70.30345,"elevation":0.0,"dstRules":"PKT-5"},{"id":1168197,"name":"Peshawar","lat":34.008,"lng":71.57849,"elevation":0.0,"dstRules":"PKT-5"},{"id":1183880,"name":"Bahawalpur","lat":29.39779,"lng":71.6752,"elevation":0.0,"dstRules":"PKT-5"},{"id":1166000,"name":"Sargodha","lat":32.08586,"lng":72.67418,"elevation":0.0,"dstRules":"PKT-5"},{"id":1166993,"name":"Rawalpindi","lat":33.59733,"lng":73.0479,"elevation":0.0,"dstRules":"PKT-5"},{"id":1176615,"name":"Islamabad","lat":33.72148,"lng":73.04329,"elevation":0.0,"dstRules":"PKT-5"},{"id":1176734,"name":"Hyderabad","lat":25.39242,"lng":68.37366,"elevation":0.0,"dstRules":"PKT-5"},{"id":1169607,"name":"Muzaffarabad","lat":34.37002,"lng":73.47082,"elevation":0.0,"dstRules":"PKT-5"},{"id":1172451,"name":"Lahore","lat":31.558,"lng":74.35071,"elevation":0.0,"dstRules":"PKT-5"},{"id":1174872,"name":"Karachi","lat":24.8608,"lng":67.0104,"elevation":0.0,"dstRules":"PKT-5"},{"id":1173055,"name":"Kotli","lat":33.51836,"lng":73.9022,"elevation":0.0,"dstRules":"PKT-5"},{"id":1169825,"name":"Multan","lat":30.19679,"lng":71.47824,"elevation":0.0,"dstRules":"PKT-5"},{"id":1167528,"name":"Quetta","lat":30.18414,"lng":67.00141,"elevation":0.0,"dstRules":"PKT-5"},{"id":1177662,"name":"Gujranwala","lat":32.15567,"lng":74.18705,"elevation":0.0,"dstRules":"PKT-5"},{"id":1164408,"name":"Sukkur","lat":27.70323,"lng":68.85889,"elevation":0.0,"dstRules":"PKT-5"}]