[{"id":110336,"name":"Dammam","lat":26.43442,"lng":50.10326,"elevation":0.0,"dstRules":"<+03>-3"},{"id":101628,"name":"Tabuk","lat":28.3998,"lng":36.57151,"elevation":0.0,"dstRules":"<+03>-3"},{"id":107304,"name":"Buraydah","lat":26.32599,"lng":43.97497,"elevation":0.0,"dstRules":"<+03>-3"},{"id":109223,"name":"Medina","lat":24.46861,"lng":39.61417,"elevation":0.0,"dstRules":"<+03>-3"},{"id":103630,"name":"Najran","lat":17.49326,"lng":44.12766,"elevation":0.0,"dstRules":"<+03>-3"},{"id":105343,"name":"Jeddah","lat":21.49012,"lng":39.18624,"elevation":0.0,"dstRules":"<+03>-3"},{"id":108410,"name":"Riyadh","lat":24.68773,"lng":46.72185,"elevation":0.0,"dstRules":"<+03>-3"},{"id":101760,"name":"Sultanah","lat":24.49258,"lng":39.58572,"elevation":0.0,"dstRules":"<+03>-3"},{"id":107968,"name":"Ta'if","lat":21.27028,"lng":40.41583,"elevation":0.0,"dstRules":"<+03>-3"},{"id":109353,"name":"Al Kharj","lat":24.15541,"lng":47.33457,"elevation":0.0,"dstRules":"<+03>-3"},{"id":104515,"name":"Mecca","lat":21.42664,"lng":39.82563,"elevation":0.0,"dstRules":"<+03>-3"},{"id":106281,"name":"Ha'il","lat":27.52188,"lng":41.69073,"elevation":0.0,"dstRules":"<+03>-3"}]