[{"id":372753,"name":"Kassala","lat":15.45099,"lng":36.39998,"elevation":0.0,"dstRules":"CAT-2"},{"id":379252,"name":"Khartoum","lat":15.55177,"lng":32.53241,"elevation":0.0,"dstRules":"CAT-2"},{"id":369004,"name":"Nyala","lat":12.04888,"lng":24.88069,"elevation":0.0,"dstRules":"CAT-2"},{"id":377039,"name":"Port Sudan","lat":19.61745,"lng":37.21644,"elevation":0.0,"dstRules":"CAT-2"},{"id":365137,"name":"Omdurman","lat":15.64453,"lng":32.47773,"elevation":0.0,"dstRules":"CAT-2"}]