[{"id":3648522,"name":"Barquisimeto","lat":10.0647,"lng":-69.35703,"elevation":0.0,"dstRules":"<-04>4"},{"id":3778045,"name":"Maturin","lat":9.74569,"lng":-63.18323,"elevation":0.0,"dstRules":"<-04>4"},{"id":3625549,"name":"Valencia","lat":10.16202,"lng":-68.00765,"elevation":0.0,"dstRules":"<-04>4"},{"id":3648559,"name":"Barcelona","lat":10.13625,"lng":-64.68618,"elevation":0.0,"dstRules":"<-04>4"},{"id":3645532,"name":"Ciudad Bolivar","lat":8.12923,"lng":-63.54086,"elevation":0.0,"dstRules":"<-04>4"},{"id":3633009,"name":"Maracaibo","lat":10.66663,"lng":-71.61245,"elevation":0.0,"dstRules":"<-04>4"},{"id":3644768,"name":"Cumana","lat":10.45397,"lng":-64.18256,"elevation":0.0,"dstRules":"<-04>4"},{"id":3645528,"name":"Ciudad Guayana","lat":8.35122,"lng":-62.64102,"elevation":0.0,"dstRules":"<-04>4"},{"id":3646738,"name":"Caracas","lat":10.48801,"lng":-66.87919,"elevation":0.0,"dstRules":"<-04>4"},{"id":3632998,"name":"Maracay","lat":10.23535,"lng":-67.59113,"elevation":0.0,"dstRules":"<-04>4"}]