[{"id":971421,"name":"Newcastle","lat":-27.75796,"lng":29.9318,"elevation":0.0,"dstRules":"SAST-2"},{"id":1020098,"name":"Benoni","lat":-26.18848,"lng":28.32078,"elevation":0.0,"dstRules":"SAST-2"},{"id":1006984,"name":"East London","lat":-33.01529,"lng":27.91162,"elevation":0.0,"dstRules":"SAST-2"},{"id":3369157,"name":"Cape Town","lat":-33.92584,"lng":18.42322,"elevation":0.0,"dstRules":"SAST-2"},{"id":949880,"name":"Tembisa","lat":-25.99636,"lng":28.2268,"elevation":0.0,"dstRules":"SAST-2"},{"id":965301,"name":"Pietermaritzburg","lat":-29.61679,"lng":30.39278,"elevation":0.0,"dstRules":"SAST-2"},{"id":964137,"name":"Pretoria","lat":-25.74486,"lng":28.18783,"elevation":0.0,"dstRules":"SAST-2"},{"id":1017780,"name":"Boksburg","lat":-26.21197,"lng":28.25958,"elevation":0.0,"dstRules":"SAST-2"},{"id":944385,"name":"Vereeniging","lat":-26.67313,"lng":27.92615,"elevation":0.0,"dstRules":"SAST-2"},{"id":964420,"name":"Port Elizabeth","lat":-33.96109,"lng":25.61494,"elevation":0.0,"dstRules":"SAST-2"},{"id":1018725,"name":"Bloemfontein","lat":-29.12107,"lng":26.214,"elevation":0.0,"dstRules":"SAST-2"},{"id":1007311,"name":"Durban","lat":-29.8579,"lng":31.0292,"elevation":0.0,"dstRules":"SAST-2"},{"id":940909,"name":"Welkom","lat":-27.97742,"lng":26.73506,"elevation":0.0,"dstRules":"SAST-2"},{"id":993800,"name":"Johannesburg","lat":-26.20227,"lng":28.04363,"elevation":0.0,"dstRules":"SAST-2"},{"id":953781,"name":"Soweto","lat":-26.26781,"lng":27.85849,"elevation":0.0,"dstRules":"SAST-2"}]